{
	"_comment": "European airports for Phase 1 prototype. See prototype-tasks.md A.3. Coordinates from airline-data/airports.csv",
	"_version": "1.0",
	"airports": [
		{
			"iata": "AMS",
			"name": "Amsterdam Schiphol",
			"city": "Amsterdam",
			"country": "NL",
			"region": "Europe",
			"lat": 52.3086,
			"lon": 4.7639,
			"elevation": -11,
			"hub_tier": 2,
			"annual_passengers": 71,
			"runways": 6,
			"gdp_per_capita": 57000,
			"landing_fee": 8000,
			"passenger_fee": 15,
			"population": 1150000,
			"recommended_hub": true
		},
		{
			"iata": "FRA",
			"name": "Frankfurt Airport",
			"city": "Frankfurt",
			"country": "DE",
			"region": "Europe",
			"lat": 50.0333,
			"lon": 8.5706,
			"elevation": 364,
			"hub_tier": 2,
			"annual_passengers": 59,
			"runways": 4,
			"gdp_per_capita": 53000,
			"landing_fee": 8000,
			"passenger_fee": 15,
			"population": 750000,
			"recommended_hub": true
		},
		{
			"iata": "CDG",
			"name": "Paris Charles de Gaulle",
			"city": "Paris",
			"country": "FR",
			"region": "Europe",
			"lat": 49.0097,
			"lon": 2.5479,
			"elevation": 119,
			"hub_tier": 2,
			"annual_passengers": 67,
			"runways": 4,
			"gdp_per_capita": 45000,
			"landing_fee": 8500,
			"passenger_fee": 16,
			"population": 2100000,
			"recommended_hub": true
		},
		{
			"iata": "MUC",
			"name": "Munich Airport",
			"city": "Munich",
			"country": "DE",
			"region": "Europe",
			"lat": 48.3538,
			"lon": 11.7861,
			"elevation": 1487,
			"hub_tier": 2,
			"annual_passengers": 48,
			"runways": 2,
			"gdp_per_capita": 55000,
			"landing_fee": 7500,
			"passenger_fee": 14,
			"population": 1500000,
			"recommended_hub": true
		},
		{
			"iata": "LHR",
			"name": "London Heathrow",
			"city": "London",
			"country": "GB",
			"region": "Europe",
			"lat": 51.4706,
			"lon": -0.4619,
			"elevation": 83,
			"hub_tier": 1,
			"annual_passengers": 80,
			"runways": 2,
			"gdp_per_capita": 48000,
			"landing_fee": 9500,
			"passenger_fee": 18,
			"population": 9000000
		},
		{
			"iata": "LGW",
			"name": "London Gatwick",
			"city": "London",
			"country": "GB",
			"region": "Europe",
			"lat": 51.1481,
			"lon": -0.1903,
			"elevation": 202,
			"hub_tier": 3,
			"annual_passengers": 46,
			"runways": 2,
			"gdp_per_capita": 48000,
			"landing_fee": 7000,
			"passenger_fee": 14,
			"population": 9000000
		},
		{
			"iata": "STN",
			"name": "London Stansted",
			"city": "London",
			"country": "GB",
			"region": "Europe",
			"lat": 51.885,
			"lon": 0.235,
			"elevation": 348,
			"hub_tier": 3,
			"annual_passengers": 28,
			"runways": 1,
			"gdp_per_capita": 48000,
			"landing_fee": 5500,
			"passenger_fee": 12,
			"population": 9000000
		},
		{
			"iata": "MAD",
			"name": "Madrid Barajas",
			"city": "Madrid",
			"country": "ES",
			"region": "Europe",
			"lat": 40.4936,
			"lon": -3.5668,
			"elevation": 610,
			"hub_tier": 2,
			"annual_passengers": 62,
			"runways": 4,
			"gdp_per_capita": 35000,
			"landing_fee": 7000,
			"passenger_fee": 13,
			"population": 3300000
		},
		{
			"iata": "BCN",
			"name": "Barcelona El Prat",
			"city": "Barcelona",
			"country": "ES",
			"region": "Europe",
			"lat": 41.2971,
			"lon": 2.0785,
			"elevation": 4,
			"hub_tier": 3,
			"annual_passengers": 52,
			"runways": 3,
			"gdp_per_capita": 33000,
			"landing_fee": 6500,
			"passenger_fee": 12,
			"population": 1600000
		},
		{
			"iata": "FCO",
			"name": "Rome Fiumicino",
			"city": "Rome",
			"country": "IT",
			"region": "Europe",
			"lat": 41.8003,
			"lon": 12.2389,
			"elevation": 5,
			"hub_tier": 2,
			"annual_passengers": 43,
			"runways": 4,
			"gdp_per_capita": 38000,
			"landing_fee": 7000,
			"passenger_fee": 14,
			"population": 2900000
		},
		{
			"iata": "MXP",
			"name": "Milan Malpensa",
			"city": "Milan",
			"country": "IT",
			"region": "Europe",
			"lat": 45.6306,
			"lon": 8.7231,
			"elevation": 234,
			"hub_tier": 3,
			"annual_passengers": 29,
			"runways": 2,
			"gdp_per_capita": 42000,
			"landing_fee": 6500,
			"passenger_fee": 13,
			"population": 1400000
		},
		{
			"iata": "VIE",
			"name": "Vienna International",
			"city": "Vienna",
			"country": "AT",
			"region": "Europe",
			"lat": 48.1103,
			"lon": 16.5697,
			"elevation": 183,
			"hub_tier": 3,
			"annual_passengers": 31,
			"runways": 2,
			"gdp_per_capita": 51000,
			"landing_fee": 7000,
			"passenger_fee": 14,
			"population": 1900000
		},
		{
			"iata": "ZRH",
			"name": "Zurich Airport",
			"city": "Zurich",
			"country": "CH",
			"region": "Europe",
			"lat": 47.4647,
			"lon": 8.5492,
			"elevation": 432,
			"hub_tier": 3,
			"annual_passengers": 34,
			"runways": 3,
			"gdp_per_capita": 85000,
			"landing_fee": 8000,
			"passenger_fee": 16,
			"population": 430000
		},
		{
			"iata": "GVA",
			"name": "Geneva Airport",
			"city": "Geneva",
			"country": "CH",
			"region": "Europe",
			"lat": 46.2381,
			"lon": 6.1089,
			"elevation": 430,
			"hub_tier": 4,
			"annual_passengers": 18,
			"runways": 2,
			"gdp_per_capita": 85000,
			"landing_fee": 7500,
			"passenger_fee": 15,
			"population": 200000
		},
		{
			"iata": "BRU",
			"name": "Brussels Airport",
			"city": "Brussels",
			"country": "BE",
			"region": "Europe",
			"lat": 50.9014,
			"lon": 4.4844,
			"elevation": 184,
			"hub_tier": 3,
			"annual_passengers": 26,
			"runways": 3,
			"gdp_per_capita": 46000,
			"landing_fee": 7000,
			"passenger_fee": 14,
			"population": 1200000
		},
		{
			"iata": "CPH",
			"name": "Copenhagen Kastrup",
			"city": "Copenhagen",
			"country": "DK",
			"region": "Europe",
			"lat": 55.6179,
			"lon": 12.656,
			"elevation": 17,
			"hub_tier": 3,
			"annual_passengers": 30,
			"runways": 3,
			"gdp_per_capita": 60000,
			"landing_fee": 7500,
			"passenger_fee": 15,
			"population": 800000
		},
		{
			"iata": "OSL",
			"name": "Oslo Gardermoen",
			"city": "Oslo",
			"country": "NO",
			"region": "Europe",
			"lat": 60.1939,
			"lon": 11.1004,
			"elevation": 681,
			"hub_tier": 3,
			"annual_passengers": 29,
			"runways": 2,
			"gdp_per_capita": 75000,
			"landing_fee": 8000,
			"passenger_fee": 16,
			"population": 700000
		},
		{
			"iata": "ARN",
			"name": "Stockholm Arlanda",
			"city": "Stockholm",
			"country": "SE",
			"region": "Europe",
			"lat": 59.6519,
			"lon": 17.9186,
			"elevation": 61,
			"hub_tier": 3,
			"annual_passengers": 27,
			"runways": 3,
			"gdp_per_capita": 55000,
			"landing_fee": 7500,
			"passenger_fee": 15,
			"population": 1000000
		},
		{
			"iata": "HEL",
			"name": "Helsinki Vantaa",
			"city": "Helsinki",
			"country": "FI",
			"region": "Europe",
			"lat": 60.3172,
			"lon": 24.9633,
			"elevation": 179,
			"hub_tier": 3,
			"annual_passengers": 22,
			"runways": 3,
			"gdp_per_capita": 50000,
			"landing_fee": 7000,
			"passenger_fee": 14,
			"population": 650000
		},
		{
			"iata": "DUB",
			"name": "Dublin Airport",
			"city": "Dublin",
			"country": "IE",
			"region": "Europe",
			"lat": 53.4213,
			"lon": -6.2701,
			"elevation": 242,
			"hub_tier": 3,
			"annual_passengers": 33,
			"runways": 2,
			"gdp_per_capita": 80000,
			"landing_fee": 6500,
			"passenger_fee": 13,
			"population": 550000
		},
		{
			"iata": "LIS",
			"name": "Lisbon Portela",
			"city": "Lisbon",
			"country": "PT",
			"region": "Europe",
			"lat": 38.7813,
			"lon": -9.1359,
			"elevation": 114,
			"hub_tier": 3,
			"annual_passengers": 31,
			"runways": 2,
			"gdp_per_capita": 24000,
			"landing_fee": 5500,
			"passenger_fee": 11,
			"population": 550000
		},
		{
			"iata": "WAW",
			"name": "Warsaw Chopin",
			"city": "Warsaw",
			"country": "PL",
			"region": "Europe",
			"lat": 52.1657,
			"lon": 20.9671,
			"elevation": 110,
			"hub_tier": 3,
			"annual_passengers": 18,
			"runways": 2,
			"gdp_per_capita": 18000,
			"landing_fee": 5000,
			"passenger_fee": 10,
			"population": 1800000
		},
		{
			"iata": "PRG",
			"name": "Prague Václav Havel",
			"city": "Prague",
			"country": "CZ",
			"region": "Europe",
			"lat": 50.1008,
			"lon": 14.26,
			"elevation": 381,
			"hub_tier": 3,
			"annual_passengers": 17,
			"runways": 2,
			"gdp_per_capita": 25000,
			"landing_fee": 5500,
			"passenger_fee": 11,
			"population": 1300000
		},
		{
			"iata": "BUD",
			"name": "Budapest Ferenc Liszt",
			"city": "Budapest",
			"country": "HU",
			"region": "Europe",
			"lat": 47.4298,
			"lon": 19.2611,
			"elevation": 151,
			"hub_tier": 4,
			"annual_passengers": 16,
			"runways": 2,
			"gdp_per_capita": 18000,
			"landing_fee": 5000,
			"passenger_fee": 10,
			"population": 1750000
		},
		{
			"iata": "ATH",
			"name": "Athens Eleftherios Venizelos",
			"city": "Athens",
			"country": "GR",
			"region": "Europe",
			"lat": 37.9364,
			"lon": 23.9445,
			"elevation": 94,
			"hub_tier": 3,
			"annual_passengers": 25,
			"runways": 2,
			"gdp_per_capita": 20000,
			"landing_fee": 5500,
			"passenger_fee": 11,
			"population": 3150000
		},
		{
			"iata": "DUS",
			"name": "Düsseldorf Airport",
			"city": "Düsseldorf",
			"country": "DE",
			"region": "Europe",
			"lat": 51.2895,
			"lon": 6.7668,
			"elevation": 147,
			"hub_tier": 3,
			"annual_passengers": 25,
			"runways": 2,
			"gdp_per_capita": 53000,
			"landing_fee": 6500,
			"passenger_fee": 13,
			"population": 620000
		},
		{
			"iata": "HAM",
			"name": "Hamburg Airport",
			"city": "Hamburg",
			"country": "DE",
			"region": "Europe",
			"lat": 53.6304,
			"lon": 9.9882,
			"elevation": 53,
			"hub_tier": 4,
			"annual_passengers": 17,
			"runways": 2,
			"gdp_per_capita": 53000,
			"landing_fee": 6000,
			"passenger_fee": 12,
			"population": 1900000
		},
		{
			"iata": "CGN",
			"name": "Cologne Bonn Airport",
			"city": "Cologne",
			"country": "DE",
			"region": "Europe",
			"lat": 50.8659,
			"lon": 7.1427,
			"elevation": 302,
			"hub_tier": 4,
			"annual_passengers": 12,
			"runways": 3,
			"gdp_per_capita": 53000,
			"landing_fee": 5500,
			"passenger_fee": 11,
			"population": 1100000
		},
		{
			"iata": "MAN",
			"name": "Manchester Airport",
			"city": "Manchester",
			"country": "GB",
			"region": "Europe",
			"lat": 53.3537,
			"lon": -2.2750,
			"elevation": 257,
			"hub_tier": 3,
			"annual_passengers": 29,
			"runways": 2,
			"gdp_per_capita": 43000,
			"landing_fee": 6500,
			"passenger_fee": 13,
			"population": 550000
		},
		{
			"iata": "EDI",
			"name": "Edinburgh Airport",
			"city": "Edinburgh",
			"country": "GB",
			"region": "Europe",
			"lat": 55.95,
			"lon": -3.3725,
			"elevation": 135,
			"hub_tier": 4,
			"annual_passengers": 15,
			"runways": 1,
			"gdp_per_capita": 45000,
			"landing_fee": 5500,
			"passenger_fee": 11,
			"population": 530000
		},
		{
			"iata": "NCE",
			"name": "Nice Côte d'Azur",
			"city": "Nice",
			"country": "FR",
			"region": "Europe",
			"lat": 43.6584,
			"lon": 7.2159,
			"elevation": 4,
			"hub_tier": 4,
			"annual_passengers": 14,
			"runways": 2,
			"gdp_per_capita": 42000,
			"landing_fee": 6000,
			"passenger_fee": 12,
			"population": 350000
		},
		{
			"iata": "LYS",
			"name": "Lyon Saint-Exupéry",
			"city": "Lyon",
			"country": "FR",
			"region": "Europe",
			"lat": 45.7256,
			"lon": 5.0811,
			"elevation": 250,
			"hub_tier": 4,
			"annual_passengers": 12,
			"runways": 2,
			"gdp_per_capita": 40000,
			"landing_fee": 5500,
			"passenger_fee": 11,
			"population": 520000
		}
	]
}
